[
  {
    "name": "亚洲",
    "countries": [
      {
        "name": "阿富汗",
        "lon": 67.678946,
        "lat": 33.930445,
        "level": 6
      },
      {
        "name": "阿拉伯联合酋长国",
        "lon": 54.752602,
        "lat": 24.356466,
        "level": 6
      },
      {
        "name": "阿曼苏丹国",
        "lon": 55.918291,
        "lat": 21.521187,
        "level": 6
      },
      {
        "name": "阿塞拜疆共和国",
        "lon": 47.689875,
        "lat": 40.151348,
        "level": 6
      },
      {
        "name": "巴基斯坦伊斯兰共和国",
        "lon": 69.357344,
        "lat": 30.392059,
        "level": 7
      },
      {
        "name": "巴勒斯坦国",
        "lon": 34.94516,
        "lat": 31.390506,
        "level": 6
      },
      {
        "name": "巴林国",
        "lon": 50.607277,
        "lat": 25.912416,
        "level": 6
      },
      {
        "name": "不丹王国",
        "lon": 90.442238,
        "lat": 27.478055,
        "level": 6
      },
      {
        "name": "朝鲜民主主义人民共和国",
        "lon": 127.430683,
        "lat": 40.341877,
        "level": 6
      },
      {
        "name": "东帝汶",
        "lon": 125.676895,
        "lat": -8.895786,
        "level": 6
      },
      {
        "name": "菲律宾共和国",
        "lon": 120.154879,
        "lat": 15.618222,
        "level": 6
      },
      {
        "name": "格鲁吉亚",
        "lon": 43.368055,
        "lat": 42.319847,
        "level": 6
      },
      {
        "name": "哈萨克斯坦共和国",
        "lon": 66.902264,
        "lat": 48.193764,
        "level": 6
      },
      {
        "name": "大韩民国",
        "lon": 127.765678,
        "lat": 35.859278,
        "level": 6
      },
      {
        "name": "吉尔吉斯共和国",
        "lon": 74.761978,
        "lat": 41.205528,
        "level": 6
      },
      {
        "name": "柬埔寨王国",
        "lon": 104.98386,
        "lat": 12.296333,
        "level": 6
      },
      {
        "name": "卡塔尔国",
        "lon": 51.314008,
        "lat": 25.325457,
        "level": 6
      },
      {
        "name": "科威特",
        "lon": 47.493967,
        "lat": 29.314155,
        "level": 6
      },
      {
        "name": "老挝人民民主共和国",
        "lon": 105.162371,
        "lat": 18.209671,
        "level": 6
      },
      {
        "name": "黎巴嫩共和国",
        "lon": 35.86982,
        "lat": 33.869711,
        "level": 6
      },
      {
        "name": "马尔代夫共和国",
        "lon": 73.241497,
        "lat": 6.232688,
        "level": 6
      },
      {
        "name": "马来西亚",
        "lon": 114.184383,
        "lat": 4.109319,
        "level": 6
      },
      {
        "name": "蒙古国",
        "lon": 103.835777,
        "lat": 46.867826,
        "level": 6
      },
      {
        "name": "孟加拉人民共和国",
        "lon": 90.351002,
        "lat": 23.608598,
        "level": 6
      },
      {
        "name": "缅甸联邦",
        "lon": 96.678745,
        "lat": 19.073738,
        "level": 6
      },
      {
        "name": "尼泊尔王国",
        "lon": 84.127804,
        "lat": 28.4032,
        "level": 6
      },
      {
        "name": "日本国",
        "lon": 133.28743,
        "lat": 34.779806,
        "level": 6
      },
      {
        "name": "塞浦路斯共和国",
        "lon": 33.435499,
        "lat": 35.132513,
        "level": 6
      },
      {
        "name": "沙特阿拉伯王国",
        "lon": 45.081196,
        "lat": 23.884287,
        "level": 6
      },
      {
        "name": "斯里兰卡民主社会主义共和国",
        "lon": 80.767097,
        "lat": 7.874097,
        "level": 6
      },
      {
        "name": "塔吉克斯坦共和国",
        "lon": 71.268593,
        "lat": 38.858194,
        "level": 6
      },
      {
        "name": "泰王国",
        "lon": 101.492516,
        "lat": 13.036597,
        "level": 6
      },
      {
        "name": "土耳其共和国",
        "lon": 35.25175,
        "lat": 38.961515,
        "level": 6
      },
      {
        "name": "土库曼斯坦",
        "lon": 59.562874,
        "lat": 38.968319,
        "level": 6
      },
      {
        "name": "文莱达鲁萨兰国",
        "lon": 114.715443,
        "lat": 4.525125,
        "level": 6
      },
      {
        "name": "乌兹别克斯坦共和国",
        "lon": 64.564459,
        "lat": 41.596968,
        "level": 6
      },
      {
        "name": "新加坡共和国",
        "lon": 103.864166,
        "lat": 1.317653,
        "level": 6
      },
      {
        "name": "阿拉伯叙利亚共和国",
        "lon": 38.98114,
        "lat": 34.817663,
        "level": 6
      },
      {
        "name": "亚美尼亚共和国",
        "lon": 45.039904,
        "lat": 40.066181,
        "level": 6
      },
      {
        "name": "也门共和国",
        "lon": 48.173292,
        "lat": 15.556706,
        "level": 6
      },
      {
        "name": "伊拉克共和国",
        "lon": 43.682766,
        "lat": 33.22107,
        "level": 6
      },
      {
        "name": "伊朗伊斯兰共和国",
        "lon": 53.682375,
        "lat": 32.420652,
        "level": 6
      },
      {
        "name": "以色列国",
        "lon": 34.94516,
        "lat": 31.390506,
        "level": 6
      },
      {
        "name": "印度共和国",
        "lon": 82.664944,
        "lat": 21.123934,
        "level": 5
      },
      {
        "name": "印度尼西亚共和国",
        "lon": 110.346822,
        "lat": -2.550222,
        "level": 6
      },
      {
        "name": "约旦哈希姆王国",
        "lon": 37.129591,
        "lat": 31.278143,
        "level": 6
      },
      {
        "name": "越南社会主义共和国",
        "lon": 105.819908,
        "lat": 21.031948,
        "level": 6
      },
      {
        "name": "中华人民共和国",
        "lon": 104.293175,
        "lat": 35.7,
        "level": 4
      }
    ]
  },
  {
    "name": "欧洲",
    "countries": [
      {
        "name": "阿尔巴尼亚共和国",
        "lon": 20.166447,
        "lat": 41.152782,
        "level": 6
      },
      {
        "name": "爱尔兰",
        "lon": -8.31025,
        "lat": 53.430529,
        "level": 6
      },
      {
        "name": "爱沙尼亚共和国",
        "lon": 24.991709,
        "lat": 58.60207,
        "level": 6
      },
      {
        "name": "安道尔公国",
        "lon": 1.60125,
        "lat": 42.546888,
        "level": 6
      },
      {
        "name": "奥地利共和国",
        "lon": 13.349319,
        "lat": 47.697542,
        "level": 6
      },
      {
        "name": "白俄罗斯共和国",
        "lon": 27.973847,
        "lat": 53.711111,
        "level": 6
      },
      {
        "name": "保加利亚共和国",
        "lon": 25.484542,
        "lat": 42.728767,
        "level": 6
      },
      {
        "name": "比利时王国",
        "lon": 4.475403,
        "lat": 50.499527,
        "level": 6
      },
      {
        "name": "冰岛共和国",
        "lon": -19.02117,
        "lat": 64.925264,
        "level": 6
      },
      {
        "name": "波斯尼亚和黑塞哥维那",
        "lon": 17.67044,
        "lat": 43.899708,
        "level": 6
      },
      {
        "name": "波兰共和国",
        "lon": 19.136875,
        "lat": 51.92275,
        "level": 6
      },
      {
        "name": "丹麦王国",
        "lon": 9.846417,
        "lat": 56.155403,
        "level": 6
      },
      {
        "name": "德意志联邦共和国",
        "lon": 10.452764,
        "lat": 51.165707,
        "level": 6
      },
      {
        "name": "俄罗斯联邦",
        "lon": 90,
        "lat": 61.523111,
        "level": 3
      },
      {
        "name": "法兰西共和国",
        "lon": 2.209667,
        "lat": 46.215792,
        "level": 6
      },
      {
        "name": "法罗群岛",
        "lon": -7.207037,
        "lat": 62.065481,
        "level": 6
      },
      {
        "name": "梵蒂冈城国",
        "lon": 12.450875,
        "lat": 41.904528,
        "level": 6
      },
      {
        "name": "芬兰共和国",
        "lon": 25.449319,
        "lat": 64.931818,
        "level": 6
      },
      {
        "name": "荷兰王国",
        "lon": 5.29525,
        "lat": 52.132706,
        "level": 6
      },
      {
        "name": "捷克共和国",
        "lon": 15.478153,
        "lat": 49.800901,
        "level": 6
      },
      {
        "name": "克罗地亚共和国",
        "lon": 17.463819,
        "lat": 45.155777,
        "level": 6
      },
      {
        "name": "拉脱维亚共和国",
        "lon": 24.607722,
        "lat": 56.875584,
        "level": 6
      },
      {
        "name": "立陶宛共和国",
        "lon": 23.906736,
        "lat": 55.174112,
        "level": 6
      },
      {
        "name": "列支敦士登公国",
        "lon": 9.555,
        "lat": 47.164696,
        "level": 6
      },
      {
        "name": "卢森堡大公国",
        "lon": 6.131514,
        "lat": 49.815763,
        "level": 6
      },
      {
        "name": "罗马尼亚",
        "lon": 24.977725,
        "lat": 45.946289,
        "level": 6
      },
      {
        "name": "马耳他共和国",
        "lon": 14.384611,
        "lat": 35.946152,
        "level": 6
      },
      {
        "name": "摩尔多瓦共和国",
        "lon": 28.377167,
        "lat": 46.978523,
        "level": 6
      },
      {
        "name": "摩纳哥公国",
        "lon": 7.424014,
        "lat": 43.75075,
        "level": 6
      },
      {
        "name": "挪威王国",
        "lon": 13.479509,
        "lat": 64.577347,
        "level": 6
      },
      {
        "name": "葡萄牙共和国",
        "lon": -8.12,
        "lat": 39.28,
        "level": 6
      },
      {
        "name": "前南斯拉夫马其顿共和国",
        "lon": 21.743258,
        "lat": 41.61434,
        "level": 6
      },
      {
        "name": "瑞典王国",
        "lon": 17.575,
        "lat": 62.199806,
        "level": 6
      },
      {
        "name": "瑞士联邦",
        "lon": 8.224472,
        "lat": 46.815514,
        "level": 6
      },
      {
        "name": "圣马力诺共和国",
        "lon": 12.458708,
        "lat": 43.94886,
        "level": 6
      },
      {
        "name": "斯洛伐克共和国",
        "lon": 19.709097,
        "lat": 48.66564,
        "level": 6
      },
      {
        "name": "斯洛文尼亚共和国",
        "lon": 14.974542,
        "lat": 46.145529,
        "level": 6
      },
      {
        "name": "乌克兰",
        "lon": 31.168139,
        "lat": 48.379889,
        "level": 6
      },
      {
        "name": "西班牙王国",
        "lon": -2.487695,
        "lat": 39.864695,
        "level": 6
      },
      {
        "name": "希腊共和国",
        "lon": 22.798658,
        "lat": 38.283527,
        "level": 6
      },
      {
        "name": "匈牙利",
        "lon": 19.508945,
        "lat": 47.164639,
        "level": 6
      },
      {
        "name": "意大利共和国",
        "lon": 14.547259,
        "lat": 41.293695,
        "level": 6
      },
      {
        "name": "大不列颠及北爱尔兰联合王国",
        "lon": -3.445833,
        "lat": 55.00782,
        "level": 6
      }
    ]
  },
  {
    "name": "非洲",
    "countries": [
      {
        "name": "阿尔及利亚民主人民共和国",
        "lon": 1.65284,
        "lat": 28.026875,
        "level": 6
      },
      {
        "name": "阿拉伯埃及共和国",
        "lon": 30.470527,
        "lat": 26.696362,
        "level": 6
      },
      {
        "name": "埃塞俄比亚联邦民主共和国",
        "lon": 40.493059,
        "lat": 9.148086,
        "level": 6
      },
      {
        "name": "安哥拉共和国",
        "lon": 17.880669,
        "lat": -11.209451,
        "level": 6
      },
      {
        "name": "贝宁共和国",
        "lon": 2.313138,
        "lat": 9.322047,
        "level": 6
      },
      {
        "name": "博茨瓦纳共和国",
        "lon": 24.680158,
        "lat": -22.344029,
        "level": 6
      },
      {
        "name": "布基纳法索",
        "lon": -1.556761,
        "lat": 12.24185,
        "level": 6
      },
      {
        "name": "布隆迪共和国",
        "lon": 29.920395,
        "lat": -3.387918,
        "level": 6
      },
      {
        "name": "查戈斯群岛",
        "lon": 72.28,
        "lat": -7.17,
        "level": 6
      },
      {
        "name": "赤道几内亚共和国",
        "lon": 9.424605,
        "lat": 1.163017,
        "level": 6
      },
      {
        "name": "多哥共和国",
        "lon": 0.829684,
        "lat": 8.621697,
        "level": 6
      },
      {
        "name": "厄立特里亚国",
        "lon": 40.912019,
        "lat": 14.240732,
        "level": 6
      },
      {
        "name": "佛得角共和国",
        "lon": -23.207304,
        "lat": 15.281207,
        "level": 6
      },
      {
        "name": "冈比亚共和国",
        "lon": -15.311436,
        "lat": 13.445411,
        "level": 6
      },
      {
        "name": "刚果共和国",
        "lon": 14.927424,
        "lat": -0.662071,
        "level": 6
      },
      {
        "name": "刚果共和国",
        "lon": 14.927424,
        "lat": -0.662071,
        "level": 6
      },
      {
        "name": "吉布提共和国",
        "lon": 42.595209,
        "lat": 11.808375,
        "level": 6
      },
      {
        "name": "几内亚共和国",
        "lon": -10.1228,
        "lat": 9.934886,
        "level": 6
      },
      {
        "name": "几内亚比绍共和国",
        "lon": -15.177029,
        "lat": 11.77038,
        "level": 6
      },
      {
        "name": "加纳共和国",
        "lon": -1.03182,
        "lat": 7.955012,
        "level": 6
      },
      {
        "name": "加蓬共和国",
        "lon": 11.598909,
        "lat": -0.828097,
        "level": 6
      },
      {
        "name": "津巴布韦共和国",
        "lon": 29.146667,
        "lat": -19.013287,
        "level": 6
      },
      {
        "name": "喀麦隆共和国",
        "lon": 12.34344,
        "lat": 7.365302,
        "level": 6
      },
      {
        "name": "凯尔盖朗群岛",
        "lon": 69.59,
        "lat": -49.42,
        "level": 6
      },
      {
        "name": "科摩罗伊斯兰联邦共和国",
        "lon": 44.273737,
        "lat": -12.203533,
        "level": 6
      },
      {
        "name": "科特迪瓦共和国",
        "lon": -5.547099,
        "lat": 7.546854,
        "level": 6
      },
      {
        "name": "肯尼亚共和国",
        "lon": 37.903969,
        "lat": -0.024357,
        "level": 6
      },
      {
        "name": "莱索托王国",
        "lon": 28.247415,
        "lat": -29.620511,
        "level": 6
      },
      {
        "name": "利比里亚共和国",
        "lon": -9.428598,
        "lat": 6.452424,
        "level": 6
      },
      {
        "name": "大阿拉伯利比亚人民社会主义民众国",
        "lon": 17.268816,
        "lat": 26.338522,
        "level": 6
      },
      {
        "name": "留尼汪",
        "lon": 55.532063,
        "lat": -21.114533,
        "level": 6
      },
      {
        "name": "卢旺达共和国",
        "lon": 29.876376,
        "lat": -1.94708,
        "level": 6
      },
      {
        "name": "马达加斯加共和国",
        "lon": 47.424183,
        "lat": -18.579088,
        "level": 6
      },
      {
        "name": "马拉维共和国",
        "lon": 34.295385,
        "lat": -13.246271,
        "level": 6
      },
      {
        "name": "马里共和国",
        "lon": -3.998823,
        "lat": 17.579757,
        "level": 6
      },
      {
        "name": "毛里求斯共和国",
        "lon": 57.588,
        "lat": -20.28,
        "level": 9
      },
      {
        "name": "毛里塔尼亚伊斯兰共和国",
        "lon": -6.995683,
        "lat": 17.733315,
        "level": 6
      },
      {
        "name": "摩洛哥王国",
        "lon": -7.080168,
        "lat": 31.795072,
        "level": 6
      },
      {
        "name": "莫桑比克共和国",
        "lon": 35.530895,
        "lat": -18.670284,
        "level": 6
      },
      {
        "name": "纳米比亚共和国",
        "lon": 18.486165,
        "lat": -22.965662,
        "level": 6
      },
      {
        "name": "南非共和国",
        "lon": 24.676997,
        "lat": -28.48322,
        "level": 6
      },
      {
        "name": "尼日尔共和国",
        "lon": 8.080947,
        "lat": 17.611001,
        "level": 6
      },
      {
        "name": "尼日利亚联邦共和国",
        "lon": 8.674253,
        "lat": 9.084575,
        "level": 6
      },
      {
        "name": "塞拉利昂共和国",
        "lon": -11.795934,
        "lat": 8.464345,
        "level": 6
      },
      {
        "name": "塞内加尔共和国",
        "lon": -14.445562,
        "lat": 14.499454,
        "level": 6
      },
      {
        "name": "塞舌尔共和国",
        "lon": 55.439481,
        "lat": -4.637546,
        "level": 6
      },
      {
        "name": "圣多美和普林西比民主共和国",
        "lon": 6.669411,
        "lat": 0.414827,
        "level": 6
      },
      {
        "name": "圣赫勒拿",
        "lon": -5.7,
        "lat": -15.94,
        "level": 8
      },
      {
        "name": "斯威士兰王国",
        "lon": 31.465684,
        "lat": -26.518374,
        "level": 6
      },
      {
        "name": "苏丹共和国",
        "lon": 30.209488,
        "lat": 13.316639,
        "level": 6
      },
      {
        "name": "索马里共和国",
        "lon": 46.20083,
        "lat": 5.161571,
        "level": 6
      },
      {
        "name": "坦桑尼亚联合共和国",
        "lon": 34.885195,
        "lat": -6.368216,
        "level": 6
      },
      {
        "name": "突尼斯共和国",
        "lon": 9.561556,
        "lat": 33.892166,
        "level": 6
      },
      {
        "name": "乌干达共和国",
        "lon": 32.30465,
        "lat": 1.365188,
        "level": 6
      },
      {
        "name": "西撒哈拉",
        "lon": -12.886729,
        "lat": 24.221916,
        "level": 6
      },
      {
        "name": "赞比亚共和国",
        "lon": 27.852537,
        "lat": -13.151917,
        "level": 6
      },
      {
        "name": "乍得共和国",
        "lon": 18.738068,
        "lat": 15.445718,
        "level": 6
      },
      {
        "name": "中非共和国",
        "lon": 20.941759,
        "lat": 6.614042,
        "level": 6
      }
    ]
  },
  {
    "name": "大洋洲",
    "countries": [
      {
        "name": "澳大利亚联邦",
        "lon": 136.011169,
        "lat": -26.980208,
        "level": 4
      },
      {
        "name": "巴布亚新几内亚独立国",
        "lon": 147.054642,
        "lat": -6.267875,
        "level": 6
      },
      {
        "name": "北马里亚纳自由联邦",
        "lon": 145.788828,
        "lat": 18.10874,
        "level": 6
      },
      {
        "name": "法属波利尼西亚",
        "lon": -149.285491,
        "lat": -17.740909,
        "level": 6
      },
      {
        "name": "斐济群岛共和国",
        "lon": 177.969,
        "lat": -17.83,
        "level": 6
      },
      {
        "name": "关岛",
        "lon": 144.7751,
        "lat": 13.4404,
        "level": 6
      },
      {
        "name": "基里巴斯共和国",
        "lon": 172.99,
        "lat": 1.27,
        "level": 6
      },
      {
        "name": "库克群岛",
        "lon": -158.126035,
        "lat": -19.994144,
        "level": 6
      },
      {
        "name": "马绍尔群岛共和国",
        "lon": 171.28,
        "lat": 6.9,
        "level": 6
      },
      {
        "name": "美属萨摩亚",
        "lon": -169.613231,
        "lat": -14.174179,
        "level": 6
      },
      {
        "name": "密克罗尼西亚联邦",
        "lon": 158.276392,
        "lat": 6.863625,
        "level": 6
      },
      {
        "name": "瑙鲁共和国",
        "lon": 166.922157,
        "lat": -0.528319,
        "level": 6
      },
      {
        "name": "纽埃",
        "lon": -169.863091,
        "lat": -19.051631,
        "level": 6
      },
      {
        "name": "帕劳共和国",
        "lon": 134.368274,
        "lat": 7.244287,
        "level": 6
      },
      {
        "name": "皮特凯恩",
        "lon": -128.311745,
        "lat": -24.36749,
        "level": 8
      },
      {
        "name": "萨摩亚独立国",
        "lon": -171.872411,
        "lat": -13.853092,
        "level": 6
      },
      {
        "name": "所罗门群岛",
        "lon": 160.842566,
        "lat": -8.685097,
        "level": 6
      },
      {
        "name": "汤加王国",
        "lon": -175.136854,
        "lat": -21.215262,
        "level": 6
      },
      {
        "name": "图瓦卢",
        "lon": 179.185055,
        "lat": -8.532808,
        "level": 6
      },
      {
        "name": "托克劳",
        "lon": -171.851,
        "lat": -9.2,
        "level": 6
      },
      {
        "name": "瓦利斯和富图纳",
        "lon": -178.084552,
        "lat": -14.318759,
        "level": 6
      },
      {
        "name": "瓦努阿图共和国",
        "lon": 167.761576,
        "lat": -15.465278,
        "level": 6
      },
      {
        "name": "新喀里多尼亚",
        "lon": 165.129509,
        "lat": -20.909223,
        "level": 6
      },
      {
        "name": "新西兰",
        "lon": 166.76685,
        "lat": -45.931443,
        "level": 6
      }
    ]
  },
  {
    "name": "南美洲",
    "countries": [
      {
        "name": "阿根廷共和国",
        "lon": -63.587402,
        "lat": -38.421295,
        "level": 6
      },
      {
        "name": "巴拉圭共和国",
        "lon": -58.453215,
        "lat": -23.451389,
        "level": 6
      },
      {
        "name": "巴西联邦共和国",
        "lon": -51.410935,
        "lat": -14.242914,
        "level": 6
      },
      {
        "name": "玻利维亚共和国",
        "lon": -63.549429,
        "lat": -16.28835,
        "level": 6
      },
      {
        "name": "厄瓜多尔共和国",
        "lon": -80.793315,
        "lat": -1.667025,
        "level": 6
      },
      {
        "name": "法属圭亚那",
        "lon": -53.07823,
        "lat": 3.951795,
        "level": 6
      },
      {
        "name": "哥伦比亚共和国",
        "lon": -74.243023,
        "lat": 4.118882,
        "level": 6
      },
      {
        "name": "圭亚那全作共和国",
        "lon": -58.932507,
        "lat": 4.866323,
        "level": 6
      },
      {
        "name": "秘鲁共和国",
        "lon": -75.002365,
        "lat": -9.181352,
        "level": 6
      },
      {
        "name": "苏里南共和国",
        "lon": -56.032028,
        "lat": 3.917846,
        "level": 6
      },
      {
        "name": "委内瑞拉共和国",
        "lon": -66.578926,
        "lat": 6.414107,
        "level": 6
      },
      {
        "name": "乌拉圭东岸共和国",
        "lon": -55.758327,
        "lat": -32.565084,
        "level": 6
      },
      {
        "name": "智利共和国",
        "lon": -70.85,
        "lat": -33.49,
        "level": 4
      }
    ]
  },
  {
    "name": "北美洲",
    "countries": [
      {
        "name": "阿鲁巴",
        "lon": -69.964001,
        "lat": 12.518355,
        "level": 6
      },
      {
        "name": "安圭拉",
        "lon": -63.032607,
        "lat": 18.256009,
        "level": 6
      },
      {
        "name": "安提瓜和巴布达",
        "lon": -61.832416,
        "lat": 17.127763,
        "level": 6
      },
      {
        "name": "巴巴多斯",
        "lon": -59.534649,
        "lat": 13.18355,
        "level": 6
      },
      {
        "name": "巴哈马联邦",
        "lon": -77.903356,
        "lat": 24.074047,
        "level": 6
      },
      {
        "name": "巴拿马共和国",
        "lon": -80.112778,
        "lat": 8.421169,
        "level": 6
      },
      {
        "name": "百慕大",
        "lon": -64.733345,
        "lat": 32.320236,
        "level": 6
      },
      {
        "name": "波多黎各",
        "lon": -66.581356,
        "lat": 18.201606,
        "level": 6
      },
      {
        "name": "伯利兹",
        "lon": -88.34647,
        "lat": 17.192929,
        "level": 6
      },
      {
        "name": "多米尼加共和国",
        "lon": -70.161743,
        "lat": 18.699975,
        "level": 6
      },
      {
        "name": "多米尼克国",
        "lon": -61.36413,
        "lat": 15.416749,
        "level": 6
      },
      {
        "name": "哥斯达黎加共和国",
        "lon": -83.690657,
        "lat": 9.310904,
        "level": 6
      },
      {
        "name": "格林纳达",
        "lon": -61.658799,
        "lat": 12.171321,
        "level": 6
      },
      {
        "name": "格陵兰",
        "lon": -42.287892,
        "lat": 71.702343,
        "level": 6
      },
      {
        "name": "古巴共和国",
        "lon": -79.544601,
        "lat": 21.711504,
        "level": 6
      },
      {
        "name": "瓜德罗普",
        "lon": -61.430553,
        "lat": 16.405904,
        "level": 6
      },
      {
        "name": "海地共和国",
        "lon": -72.751648,
        "lat": 19.054426,
        "level": 6
      },
      {
        "name": "荷属安的列斯",
        "lon": -68.92,
        "lat": 12.13,
        "level": 8
      },
      {
        "name": "洪都拉斯共和国",
        "lon": -86.253098,
        "lat": 15.20302,
        "level": 6
      },
      {
        "name": "加拿大",
        "lon": -96.818146,
        "lat": 62.40946,
        "level": 4
      },
      {
        "name": "开曼群岛",
        "lon": -81.148526,
        "lat": 19.346141,
        "level": 6
      },
      {
        "name": "马提尼克",
        "lon": -61.022814,
        "lat": 14.63554,
        "level": 6
      },
      {
        "name": "美利坚合众国",
        "lon": -97.76,
        "lat": 39.26,
        "level": 4
      },
      {
        "name": "美属维尔京群岛",
        "lon": -64.788508,
        "lat": 17.786032,
        "level": 6
      },
      {
        "name": "蒙特塞拉特",
        "lon": -62.194502,
        "lat": 16.744168,
        "level": 6
      },
      {
        "name": "墨西哥合众国",
        "lon": -102.578671,
        "lat": 23.625653,
        "level": 6
      },
      {
        "name": "尼加拉瓜共和国",
        "lon": -85.14119,
        "lat": 12.866726,
        "level": 6
      },
      {
        "name": "萨尔瓦多共和国",
        "lon": -88.910412,
        "lat": 13.796873,
        "level": 6
      },
      {
        "name": "圣基茨和尼维斯联邦",
        "lon": -62.652031,
        "lat": 17.25773,
        "level": 6
      },
      {
        "name": "圣卢西亚",
        "lon": -60.974177,
        "lat": 13.904011,
        "level": 6
      },
      {
        "name": "圣皮埃尔和密克隆",
        "lon": -56.332895,
        "lat": 47.015279,
        "level": 6
      },
      {
        "name": "圣文森特和格林纳丁斯",
        "lon": -61.200224,
        "lat": 13.165918,
        "level": 6
      },
      {
        "name": "特克斯和凯科斯群岛",
        "lon": -71.641751,
        "lat": 21.772718,
        "level": 6
      },
      {
        "name": "特立尼达和多巴哥共和国",
        "lon": -61.206661,
        "lat": 10.687223,
        "level": 6
      },
      {
        "name": "危地马拉共和国",
        "lon": -90.232346,
        "lat": 15.777351,
        "level": 6
      },
      {
        "name": "牙买加",
        "lon": -77.273479,
        "lat": 18.115265,
        "level": 6
      },
      {
        "name": "英属维尔京群岛",
        "lon": -64.381377,
        "lat": 18.49053,
        "level": 6
      }
    ]
  },
  {
    "name": "南极洲",
    "countries": [
      {
        "name": "南极洲",
        "lon": 3.223468,
        "lat": -80.968085,
        "level": 4
      }
    ]
  }
]